,City,Lat,Lng,Max Temp,Humidity,Cloudiness,Wind Speed,Country,Date
0,kapaa,22.08,-159.32,73.4,73.0,40.0,13.87,US,1589126037
1,pevek,69.7,170.31,34.12,87.0,68.0,14.07,RU,1589126037
2,barrow,71.29,-156.79,21.2,92.0,1.0,5.82,US,1589126037
3,alyangula,-13.85,136.42,73.4,94.0,5.0,1.12,AU,1589126037
4,butaritari,3.07,172.79,82.62,78.0,18.0,7.99,KI,1589126038
5,hermanus,-34.42,19.23,69.01,70.0,0.0,0.92,ZA,1589126038
6,tondi,9.73,79.02,87.62,72.0,98.0,9.64,IN,1589125991
7,dikson,73.51,80.55,27.32,97.0,92.0,13.73,RU,1589126038
8,saskylakh,71.92,114.08,16.0,95.0,100.0,8.21,RU,1589126039
9,hilo,19.73,-155.09,66.2,72.0,1.0,6.93,US,1589126039
10,mataura,-46.19,168.86,44.58,91.0,19.0,3.27,NZ,1589126039
11,ushuaia,-54.8,-68.3,41.0,80.0,95.0,3.36,AR,1589125943
12,bethel,41.37,-73.41,55.99,37.0,1.0,13.87,US,1589126039
13,zharkent,44.16,80.0,68.05,47.0,100.0,1.61,KZ,1589126040
14,mahebourg,-20.41,57.7,73.4,73.0,40.0,12.75,MU,1589126040
15,kasempa,-13.46,25.83,66.74,63.0,23.0,6.08,ZM,1589126040
16,beitbridge,-22.22,30.0,69.8,47.0,0.0,11.74,ZW,1589126040
17,najran,17.49,44.13,95.0,16.0,12.0,9.17,SA,1589126040
18,caravelas,-17.71,-39.25,76.15,59.0,74.0,9.98,BR,1589126041
19,punta arenas,-53.15,-70.92,42.8,93.0,90.0,13.87,CL,1589126018
20,yellowknife,62.46,-114.35,27.0,62.0,20.0,6.93,CA,1589125924
21,albany,42.6,-73.97,53.01,37.0,75.0,17.22,US,1589125963
22,zhengjiatun,43.51,123.51,56.39,49.0,66.0,12.15,CN,1589126041
23,buala,-8.14,159.59,81.12,82.0,8.0,6.22,SB,1589126041
24,limulunga,-15.1,23.14,72.79,46.0,52.0,4.63,ZM,1589126042
25,puerto ayora,-0.74,-90.35,82.4,74.0,20.0,11.41,EC,1589126042
26,arraial do cabo,-22.97,-42.03,78.8,47.0,20.0,13.87,BR,1589126042
27,bluff,-46.6,168.33,50.74,83.0,13.0,9.51,NZ,1589126042
28,constitucion,-35.33,-72.42,61.16,69.0,32.0,3.13,CL,1589126043
29,hobart,-42.88,147.33,50.0,81.0,43.0,2.24,AU,1589125804
30,faya,18.39,42.45,77.0,50.0,20.0,9.17,SA,1589126043
31,kincardine,56.07,-3.72,50.0,55.0,75.0,16.11,GB,1589126043
32,tasiilaq,65.61,-37.64,35.6,86.0,1.0,8.05,GL,1589126043
33,busselton,-33.65,115.33,48.99,67.0,99.0,2.08,AU,1589126044
34,luderitz,-26.65,15.16,84.2,32.0,0.0,6.93,NA,1589126044
35,larsnes,62.2,5.58,41.0,48.0,40.0,17.22,NO,1589126044
36,qaanaaq,77.48,-69.36,13.91,83.0,4.0,3.51,GL,1589126044
37,seoni malwa,22.45,77.47,85.86,32.0,6.0,9.82,IN,1589126044
38,nizhniy kuranakh,58.84,125.49,30.31,94.0,85.0,2.48,RU,1589126045
39,pinheiro,-2.52,-45.08,83.21,84.0,37.0,4.79,BR,1589126045
40,vestmannaeyjar,63.44,-20.27,44.6,66.0,75.0,16.11,IS,1589126045
41,vaini,-21.2,-175.2,73.4,100.0,75.0,15.1,TO,1589126045
42,suluktu,39.93,69.57,71.6,53.0,0.0,2.24,KG,1589126045
43,buraydah,26.33,43.98,87.8,33.0,40.0,8.05,SA,1589126045
44,ajdabiya,30.76,20.23,90.88,10.0,21.0,6.91,LY,1589126046
45,coahuayana,18.73,-103.68,82.4,51.0,5.0,11.41,MX,1589126046
46,inuvik,68.35,-133.72,39.2,64.0,75.0,8.05,CA,1589126046
47,ribeira grande,38.52,-28.7,64.4,59.0,20.0,23.04,PT,1589126046
48,zabol,32.25,67.25,72.75,19.0,51.0,11.72,AF,1589126047
49,santa maria del oro,25.93,-105.37,73.89,27.0,0.0,5.75,MX,1589126047
50,rikitea,-23.12,-134.97,75.0,73.0,1.0,10.49,PF,1589126047
51,ostrovnoy,68.05,39.51,34.47,89.0,9.0,3.02,RU,1589126047
52,port elizabeth,-33.92,25.57,75.2,41.0,0.0,9.17,ZA,1589126047
53,victoria,22.29,114.16,81.0,88.0,98.0,3.0,HK,1589125884
54,atuona,-9.8,-139.03,81.36,76.0,41.0,18.52,PF,1589126048
55,khuzhir,53.19,107.34,44.65,62.0,38.0,7.9,RU,1589126048
56,clyde river,70.47,-68.59,14.0,66.0,75.0,5.82,CA,1589126048
57,naze,28.37,129.48,73.4,100.0,90.0,8.05,JP,1589126048
58,tura,25.52,90.22,79.3,47.0,2.0,2.86,IN,1589126048
59,cairns,-16.92,145.77,69.8,73.0,1.0,6.93,AU,1589125989
60,rawson,-43.3,-65.1,62.08,35.0,0.0,27.2,AR,1589126049
61,flinders,-34.58,150.86,48.0,70.0,4.0,1.01,AU,1589126049
62,olavarria,-36.89,-60.32,64.0,65.0,10.0,1.99,AR,1589126050
63,powell river,49.85,-124.54,60.8,59.0,40.0,3.04,CA,1589126050
64,oum hadjer,13.3,19.7,104.34,7.0,0.0,5.7,TD,1589126050
65,chuy,-33.7,-53.46,70.5,55.0,55.0,11.48,UY,1589126050
66,san francisco,37.77,-122.42,57.0,76.0,40.0,5.86,US,1589125831
67,mae hong son,19.3,97.97,77.11,76.0,14.0,1.74,TH,1589126051
68,klaksvik,62.23,-6.59,33.8,69.0,100.0,16.11,FO,1589126051
69,tilichiki,60.47,166.1,31.12,100.0,100.0,1.74,RU,1589126051
70,sudbury,46.49,-80.99,37.99,59.0,90.0,12.75,CA,1589125941
71,port alfred,-33.59,26.89,77.0,52.0,17.0,1.01,ZA,1589126051
72,komsomolskiy,40.43,71.72,73.4,40.0,0.0,4.7,UZ,1589126052
73,ponta do sol,32.67,-17.1,70.0,64.0,20.0,4.7,PT,1589126052
74,cape town,-33.93,18.42,68.0,72.0,0.0,8.05,ZA,1589125889
75,sitka,57.05,-135.33,53.6,62.0,40.0,5.82,US,1589126052
76,biak,-0.91,122.88,77.85,83.0,100.0,3.11,ID,1589126052
77,olafsvik,64.89,-23.71,42.24,68.0,94.0,17.34,IS,1589126053
78,lebu,-37.62,-73.65,56.1,83.0,73.0,8.9,CL,1589126053
79,san quintin,30.48,-115.95,65.95,78.0,28.0,5.44,MX,1589126053
80,njombe,-9.33,34.77,54.66,94.0,67.0,6.35,TZ,1589126053
81,evensk,61.95,159.23,32.94,92.0,99.0,8.52,RU,1589126053
82,omboue,-1.57,9.26,75.49,95.0,100.0,5.12,GA,1589126053
83,egvekinot,66.32,-179.17,31.05,100.0,100.0,9.44,RU,1589126054
84,kholmogory,64.22,41.66,44.6,68.0,20.0,2.24,RU,1589126054
85,hambantota,6.12,81.12,82.4,100.0,40.0,1.12,LK,1589126054
86,neuquen,-38.95,-68.06,60.8,44.0,3.0,2.24,AR,1589125943
87,hayrabolu,41.21,27.11,69.8,43.0,11.0,5.82,TR,1589126054
88,nyurba,63.28,118.33,32.88,92.0,0.0,5.5,RU,1589126055
89,luorong,24.41,109.61,76.42,80.0,12.0,4.74,CN,1589126055
90,saldanha,-33.01,17.94,80.6,30.0,0.0,5.82,ZA,1589126055
91,nikolskoye,59.7,30.79,60.8,21.0,0.0,2.24,RU,1589126055
92,sokoni,-6.43,39.55,80.6,74.0,90.0,8.05,TZ,1589126055
93,chokurdakh,70.63,147.92,27.84,97.0,100.0,14.18,RU,1589126056
94,saint-prosper,46.21,-70.48,39.0,62.0,95.0,11.99,CA,1589126056
95,castro,-24.79,-50.01,70.36,53.0,0.0,8.41,BR,1589126056
96,new norfolk,-42.78,147.06,50.0,85.0,76.0,1.01,AU,1589126056
97,carnarvon,-24.87,113.63,73.04,60.0,82.0,10.31,AU,1589126057
98,kant,27.8,79.8,95.4,20.0,0.0,7.72,IN,1589126057
99,tefe,-3.35,-64.71,80.6,94.0,90.0,3.36,BR,1589126057
100,namibe,-15.2,12.15,86.0,66.0,20.0,11.41,AO,1589126057
101,gardez,33.6,69.23,61.27,54.0,55.0,7.47,AF,1589126057
102,longyearbyen,78.22,15.64,19.4,57.0,40.0,9.17,SJ,1589126058
103,leningradskiy,69.38,178.42,35.01,88.0,100.0,22.64,RU,1589126058
104,hovd,48.01,91.64,51.4,36.0,0.0,0.47,MN,1589126058
105,san jose de guanipa,8.89,-64.17,93.02,36.0,0.0,12.86,VE,1589126058
106,bara,10.37,10.73,98.15,30.0,12.0,3.89,NG,1589125858
107,jamestown,42.1,-79.24,53.01,42.0,90.0,16.11,US,1589125887
108,narsaq,60.92,-46.05,59.0,28.0,75.0,13.87,GL,1589126059
109,road town,18.42,-64.62,86.0,58.0,40.0,12.75,VG,1589126059
110,marsa matruh,31.35,27.25,69.8,64.0,0.0,6.93,EG,1589126059
111,shingu,33.73,135.98,67.66,97.0,100.0,4.0,JP,1589126059
112,myrtle beach,33.69,-78.89,68.0,39.0,1.0,5.82,US,1589125920
113,pinas,-3.67,-79.65,82.4,78.0,75.0,4.7,EC,1589126060
114,kiruna,67.86,20.23,28.4,79.0,100.0,17.22,SE,1589126060
115,khatanga,71.97,102.5,27.43,97.0,100.0,8.1,RU,1589126060
116,sao filipe,14.9,-24.5,74.61,72.0,25.0,15.17,CV,1589126060
117,corinto,37.94,22.96,73.0,51.0,52.0,1.99,GR,1589126061
118,port angeles,48.12,-123.43,63.0,62.0,1.0,4.7,US,1589126061
119,lompoc,34.64,-120.46,51.8,100.0,90.0,4.7,US,1589126061
120,te anau,-45.42,167.72,48.92,84.0,100.0,3.09,NZ,1589126061
121,pisco,-13.7,-76.22,69.8,77.0,0.0,5.82,PE,1589126062
122,itamaraju,-17.04,-39.53,72.82,78.0,93.0,4.07,BR,1589126062
123,kosh-agach,50.0,88.67,52.36,38.0,0.0,2.8,RU,1589126062
124,escanaba,45.75,-87.06,37.99,59.0,90.0,11.41,US,1589126062
125,altamira,-3.2,-52.21,86.0,70.0,75.0,3.36,BR,1589125929
126,harper,4.38,-7.72,85.82,71.0,15.0,13.62,LR,1589126063
127,auki,-8.77,160.7,78.98,86.0,7.0,4.52,SB,1589126063
128,boden,65.83,21.69,39.2,86.0,100.0,5.82,SE,1589126063
129,ust-kuyga,70.02,135.6,29.03,97.0,91.0,8.39,RU,1589126064
130,alpiarca,39.26,-8.58,68.0,45.0,67.0,5.01,PT,1589126064
131,pyay,18.82,95.22,88.38,51.0,4.0,4.27,MM,1589126063
132,veracruz,19.33,-96.67,84.0,74.0,40.0,2.82,MX,1589126064
133,belmonte,-15.86,-38.88,77.0,53.0,75.0,9.17,BR,1589126064
134,saint-philippe,-21.36,55.77,71.6,60.0,75.0,8.05,RE,1589126065
135,kahului,20.89,-156.47,69.8,77.0,1.0,5.82,US,1589126065
136,lima,-12.04,-77.03,75.2,64.0,32.0,9.17,PE,1589125962
137,bathsheba,13.22,-59.52,86.0,62.0,20.0,24.16,BB,1589126065
138,brae,60.4,-1.35,41.0,56.0,95.0,25.28,GB,1589126065
139,bucerias,20.75,-105.33,79.0,69.0,5.0,2.24,MX,1589126066
140,winnemucca,40.97,-117.74,60.8,21.0,1.0,4.14,US,1589126066
141,lagos,6.58,3.75,84.2,79.0,20.0,2.24,NG,1589126066
142,torbay,47.67,-52.73,44.01,64.0,90.0,34.45,CA,1589126066
143,paracuru,-3.41,-39.03,84.99,63.0,83.0,15.99,BR,1589126066
144,sola,-13.88,167.55,82.4,78.0,90.0,4.7,VU,1589126067
145,saint-pierre,-21.34,55.48,71.6,60.0,75.0,8.05,RE,1589126067
146,thompson,55.74,-97.86,19.4,44.0,5.0,11.41,CA,1589125970
147,petropavl,54.88,69.16,68.59,36.0,100.0,11.14,KZ,1589126067
148,tougan,13.07,-3.07,97.39,26.0,84.0,10.07,BF,1589126067
149,cockburn town,21.46,-71.14,80.55,83.0,95.0,22.57,TC,1589126067
150,srednekolymsk,67.45,153.68,29.39,98.0,99.0,14.61,RU,1589126068
151,port hardy,50.7,-127.42,55.4,66.0,40.0,2.24,CA,1589126068
152,quixada,-4.97,-39.02,85.32,60.0,59.0,7.96,BR,1589125857
153,nome,64.5,-165.41,37.0,80.0,40.0,8.39,US,1589126068
154,saint george,37.1,-113.58,75.99,24.0,1.0,1.83,US,1589126068
155,airai,-8.93,125.41,57.22,100.0,8.0,3.29,TL,1589126069
156,burnie,-41.07,145.92,50.0,72.0,79.0,1.01,AU,1589126069
157,sorong,-0.88,131.25,81.48,86.0,96.0,9.82,ID,1589126069
158,matamoros,25.53,-103.25,75.2,44.0,5.0,9.17,MX,1589126069
159,kodiak,57.79,-152.41,42.8,87.0,90.0,3.36,US,1589126069
160,salinas,36.68,-121.66,55.4,76.0,90.0,4.7,US,1589126070
161,svetlogorsk,52.63,29.73,60.82,64.0,75.0,4.03,BY,1589126070
162,yuzhno-kurilsk,44.03,145.86,40.68,97.0,100.0,5.41,RU,1589126070
163,leland,34.26,-78.04,66.0,48.0,1.0,5.82,US,1589125982
164,lensk,60.73,114.93,38.05,92.0,100.0,3.51,RU,1589126070
165,grand bank,47.1,-55.77,37.4,93.0,75.0,39.15,CA,1589126071
166,aklavik,68.22,-135.01,37.4,74.0,75.0,8.05,CA,1589126071
167,tuktoyaktuk,69.45,-133.04,32.0,96.0,75.0,14.99,CA,1589126071
168,mutis,6.23,-77.4,84.81,75.0,100.0,4.34,CO,1589126071
169,lakes entrance,-37.88,147.98,48.0,82.0,0.0,11.99,AU,1589126071
170,ancud,-41.87,-73.82,57.0,76.0,75.0,10.29,CL,1589126072
171,redcliffe,-27.23,153.1,62.6,55.0,75.0,8.05,AU,1589126072
172,ati,13.22,18.34,105.78,6.0,0.0,8.77,TD,1589126072
173,bembereke,10.23,2.66,90.64,43.0,49.0,1.01,BJ,1589126072
174,lagoa,39.05,-27.98,58.78,74.0,22.0,22.48,PT,1589126073
175,kushima,31.46,131.23,64.94,82.0,87.0,9.06,JP,1589126073
176,podgornoye,51.73,39.15,48.2,93.0,90.0,15.66,RU,1589126073
177,torrington,41.8,-73.12,52.0,50.0,53.0,5.99,US,1589126070
178,nyimba,-14.56,30.81,70.21,55.0,52.0,6.24,ZM,1589126073
179,ayagoz,47.97,80.44,60.96,57.0,93.0,4.45,KZ,1589126073
180,lengshuijiang,27.69,111.43,68.13,83.0,21.0,1.5,CN,1589126074
181,am timan,11.03,20.28,103.73,15.0,14.0,2.3,TD,1589126074
182,provideniya,64.38,-173.3,34.16,95.0,100.0,8.46,RU,1589126074
183,tecoanapa,16.52,-98.75,90.1,43.0,11.0,6.85,MX,1589126074
184,monrovia,6.3,-10.8,87.8,74.0,75.0,8.05,LR,1589126074
185,amboasary,-25.03,46.38,71.6,73.0,40.0,6.93,MG,1589126075
186,chernyshevskiy,63.01,112.47,31.28,99.0,100.0,12.44,RU,1589126075
187,la ronge,55.1,-105.28,30.2,58.0,75.0,8.05,CA,1589126075
188,korsakov,46.63,142.78,44.6,87.0,40.0,8.95,RU,1589126075
189,muscatine,41.47,-91.13,46.4,70.0,90.0,19.46,US,1589126076
190,byron bay,-28.65,153.62,66.2,59.0,90.0,17.22,AU,1589126076
191,bredasdorp,-34.53,20.04,62.6,67.0,0.0,6.93,ZA,1589126076
192,severo-kurilsk,50.68,156.12,33.22,92.0,69.0,12.08,RU,1589126076
193,mnogovershinnyy,53.94,139.92,36.63,80.0,0.0,5.23,RU,1589126077
194,mar del plata,-38.0,-57.56,64.99,82.0,71.0,17.22,AR,1589126077
195,maunabo,18.01,-65.9,86.0,71.0,93.0,13.0,PR,1589126077
196,souillac,-20.52,57.52,73.4,73.0,40.0,12.75,MU,1589126077
197,dhidhdhoo,6.88,73.1,85.5,71.0,100.0,7.45,MV,1589126077
198,berlevag,70.86,29.09,33.8,55.0,29.0,4.7,NO,1589126078
199,paramonga,-10.67,-77.83,70.74,73.0,79.0,7.87,PE,1589126078
200,avarua,-21.21,-159.78,78.8,83.0,37.0,16.11,CK,1589126078
201,vila franca do campo,37.72,-25.43,62.6,72.0,20.0,21.92,PT,1589126078
202,cayenne,4.93,-52.33,86.0,70.0,65.0,8.05,GF,1589126079
203,camopi,3.17,-52.32,85.59,78.0,65.0,2.26,GF,1589126079
204,sao joao da barra,-21.64,-41.05,78.8,44.0,0.0,13.87,BR,1589126079
205,dunedin,-45.87,170.5,48.99,96.0,33.0,3.0,NZ,1589126079
206,yekaterinoslavka,50.37,129.11,38.55,89.0,45.0,5.44,RU,1589126079
207,baijiantan,45.63,85.18,76.1,15.0,100.0,9.78,CN,1589126079
208,george town,5.41,100.34,77.0,100.0,40.0,4.7,MY,1589126080
209,nouadhibou,20.93,-17.03,69.06,74.0,86.0,27.27,MR,1589125811
210,vredendal,-31.67,18.5,78.98,19.0,0.0,6.2,ZA,1589126080
211,shakiso,5.75,38.92,62.29,95.0,63.0,2.01,ET,1589126080
212,san policarpo,12.18,125.51,82.22,83.0,100.0,10.09,PH,1589126080
213,meulaboh,4.14,96.13,78.96,88.0,100.0,3.33,ID,1589126081
214,chanute,37.68,-95.46,51.8,53.0,1.0,14.99,US,1589126081
215,rorvik,64.86,11.24,37.4,59.0,40.0,12.75,NO,1589126081
216,nanortalik,60.14,-45.24,45.16,74.0,99.0,16.22,GL,1589126081
217,chara,56.91,118.26,35.26,88.0,100.0,3.53,RU,1589126082
218,sistranda,63.73,8.83,39.2,51.0,40.0,13.87,NO,1589126082
219,acarau,-2.89,-40.12,80.6,85.0,99.0,10.54,BR,1589126082
220,ishinomaki,38.42,141.3,60.28,83.0,49.0,13.2,JP,1589126082
221,marquette,46.53,-87.63,35.01,69.0,97.0,8.01,US,1589126083
222,aksu,41.12,80.26,64.42,43.0,87.0,12.91,CN,1589126083
223,kloulklubed,7.04,134.26,75.2,100.0,90.0,5.82,PW,1589126083
224,kurilsk,45.23,147.88,40.46,91.0,100.0,19.04,RU,1589126083
225,cherskiy,68.75,161.3,33.31,89.0,0.0,20.29,RU,1589126083
226,hokitika,-42.72,170.97,54.28,81.0,95.0,7.07,NZ,1589126084
227,ararat,39.83,44.7,55.4,71.0,20.0,1.12,AM,1589126084
228,taicheng,38.73,113.23,51.06,43.0,51.0,6.55,CN,1589126084
229,alofi,-19.06,-169.92,71.6,100.0,40.0,2.24,NU,1589126084
230,zanzibar,-6.16,39.2,80.6,74.0,90.0,8.05,TZ,1589125879
231,onega,63.91,38.14,43.95,63.0,0.0,2.44,RU,1589126085
232,graaff-reinet,-32.25,24.53,71.01,35.0,0.0,8.48,ZA,1589126085
233,cervo,43.67,-7.41,61.0,1.0,23.0,7.61,ES,1589126085
234,bandarban,22.2,92.23,79.12,64.0,0.0,1.86,BD,1589126085
235,kalmunai,7.42,81.82,84.45,77.0,100.0,5.73,LK,1589126086
236,cidreira,-30.18,-50.21,73.27,50.0,0.0,4.09,BR,1589126086
237,fortuna,40.6,-124.16,57.0,87.0,90.0,2.8,US,1589126086
238,natal,-5.79,-35.21,86.0,66.0,40.0,13.87,BR,1589126086
239,awjilah,29.11,21.29,92.03,9.0,4.0,8.14,LY,1589126087
240,san patricio,19.22,-104.7,84.2,62.0,5.0,5.79,MX,1589126087
241,east london,-33.02,27.91,76.14,41.0,0.0,5.79,ZA,1589126087
242,kuyanovo,55.8,54.54,59.11,64.0,43.0,6.69,RU,1589126087
243,takoradi,4.88,-1.76,84.85,76.0,87.0,13.29,GH,1589126087
244,bilma,18.69,12.92,103.64,6.0,0.0,2.51,NE,1589126088
245,kisangani,0.52,25.2,74.57,88.0,100.0,0.89,CD,1589126088
246,khani,41.96,42.96,59.0,54.0,40.0,12.75,GE,1589126088
247,guia de isora,28.21,-16.78,73.4,60.0,20.0,10.29,ES,1589126088
248,masvingo,-20.06,30.83,58.6,61.0,32.0,5.5,ZW,1589126088
249,kolokani,13.57,-8.03,90.27,38.0,96.0,1.48,ML,1589126089
250,georgetown,5.41,100.34,77.0,100.0,40.0,4.7,MY,1589126080
251,blatna,49.42,13.88,69.01,83.0,92.0,3.29,CZ,1589126089
252,hue,16.47,107.6,84.2,89.0,20.0,2.24,VN,1589126089
253,avenal,36.0,-120.13,71.01,45.0,1.0,8.05,US,1589126089
254,aanekoski,62.69,25.82,57.2,33.0,100.0,19.46,FI,1589126090
255,hamadan,34.8,48.51,57.79,46.0,0.0,10.04,IR,1589125838
256,asyut,27.18,31.18,93.2,28.0,27.0,13.87,EG,1589126090
257,hamilton,39.18,-84.53,57.0,43.0,75.0,16.11,US,1589126048
258,gorele,41.03,39.0,57.2,76.0,0.0,8.05,TR,1589126091
259,conceicao do araguaia,-8.26,-49.26,84.2,66.0,76.0,9.17,BR,1589126091
260,artyom,40.47,50.33,55.4,87.0,75.0,34.45,AZ,1589126091
261,adrar,20.5,-10.07,99.52,9.0,7.0,13.98,MR,1589126091
262,karratha,-20.74,116.85,78.08,35.0,95.0,14.5,AU,1589126091
263,cap malheureux,-19.98,57.61,71.01,75.0,27.0,1.99,MU,1589126092
264,bjornevatn,69.67,29.98,39.2,48.0,40.0,8.05,NO,1589126092
265,kaitangata,-46.28,169.85,45.0,87.0,27.0,3.0,NZ,1589126092
266,sosnovoborsk,56.13,93.36,59.0,54.0,89.0,2.24,RU,1589126092
267,salalah,17.02,54.09,84.2,83.0,10.0,8.05,OM,1589126092
268,laguna,38.42,-121.42,61.0,82.0,1.0,12.75,US,1589126092
269,hithadhoo,-0.6,73.08,85.46,77.0,67.0,11.41,MV,1589126093
270,tessalit,20.2,1.01,106.81,6.0,72.0,7.76,ML,1589126094
271,henties bay,-22.12,14.28,75.52,39.0,0.0,12.55,NA,1589126094
272,vila velha,-20.33,-40.29,78.8,47.0,20.0,6.93,BR,1589126094
273,talnakh,69.49,88.4,33.8,86.0,75.0,8.95,RU,1589126094
274,baryshivka,50.36,31.32,71.6,30.0,10.0,4.47,UA,1589126095
275,evanston,42.04,-87.69,48.99,81.0,90.0,11.41,US,1589126095
276,lavrentiya,65.58,-171.0,32.27,95.0,78.0,6.91,RU,1589126095
277,barth,54.36,12.72,69.01,42.0,90.0,13.87,DE,1589125806
278,maues,-3.38,-57.72,84.18,82.0,25.0,3.62,BR,1589126096
279,smithers,54.78,-127.17,51.8,32.0,20.0,14.99,CA,1589126034
280,monkey bay,-14.07,34.92,77.13,59.0,59.0,11.95,MW,1589126096
281,westport,41.14,-73.36,55.99,43.0,1.0,21.92,US,1589126096
282,waipawa,-41.41,175.52,57.2,76.0,76.0,5.82,NZ,1589126097
283,hasaki,35.73,140.83,73.4,83.0,75.0,16.11,JP,1589126097
284,dagana,16.52,-15.51,109.4,14.0,18.0,2.24,MR,1589126097
285,qobustan,40.08,49.41,55.4,87.0,75.0,34.45,AZ,1589126097
286,el paso,31.76,-106.49,75.99,28.0,75.0,5.48,US,1589126012
287,riyadh,24.69,46.72,98.6,17.0,75.0,9.17,SA,1589125916
288,port-gentil,-0.72,8.78,78.8,100.0,75.0,11.41,GA,1589126098
289,tiksi,71.69,128.87,27.03,98.0,84.0,5.86,RU,1589126098
290,makakilo city,21.35,-158.09,71.6,93.0,1.0,6.93,US,1589126099
291,tuatapere,-46.13,167.68,51.13,79.0,100.0,6.49,NZ,1589126099
292,nobres,-14.72,-56.33,87.42,57.0,68.0,6.04,BR,1589126099
293,cabo san lucas,22.89,-109.91,79.0,46.0,20.0,5.93,MX,1589125818
294,los lunas,34.81,-106.73,64.4,25.0,1.0,11.41,US,1589126099
295,grootfontein,-19.57,18.12,71.69,31.0,11.0,9.44,NA,1589126099
296,tacuarembo,-31.73,-55.98,74.52,49.0,93.0,14.67,UY,1589126006
297,kearney,40.7,-99.08,44.01,52.0,1.0,9.17,US,1589126024
298,non sang,16.87,102.57,89.6,62.0,21.0,3.36,TH,1589126100
299,loandjili,-4.76,11.86,77.0,94.0,75.0,5.82,CG,1589126100
300,valleyview,55.07,-117.29,42.24,64.0,34.0,6.78,CA,1589126100
301,labuhan,-6.88,112.21,80.78,85.0,98.0,8.19,ID,1589126101
302,tha rua,14.56,100.72,89.01,66.0,19.0,8.14,TH,1589126101
303,nemuro,43.32,145.57,45.82,98.0,100.0,14.88,JP,1589126101
304,salym,60.06,71.48,65.71,47.0,99.0,5.06,RU,1589126101
305,srivardhan,18.03,73.02,81.09,83.0,0.0,4.85,IN,1589126101
306,wernigerode,51.83,10.78,64.99,50.0,57.0,1.99,DE,1589126102
307,bambous virieux,-20.34,57.76,73.4,73.0,40.0,12.75,MU,1589126102
308,krasnoselkup,65.7,82.47,38.86,75.0,65.0,19.13,RU,1589126102
309,krasnokamensk,50.1,118.04,51.17,58.0,99.0,21.54,RU,1589126102
310,chinsali,-10.54,32.08,62.89,81.0,68.0,4.99,ZM,1589126102
311,neiafu,-18.65,-173.98,73.4,94.0,90.0,6.49,TO,1589126103
312,desaguadero,-16.57,-69.04,54.63,46.0,50.0,3.42,PE,1589126103
313,magdalena,14.2,121.43,82.99,88.0,75.0,1.12,PH,1589126103
314,katsuura,35.13,140.3,71.01,100.0,75.0,18.34,JP,1589126103
315,hanzhong,33.07,107.03,63.45,74.0,91.0,4.59,CN,1589126103
316,nueva loja,0.08,-76.88,77.0,88.0,75.0,2.24,EC,1589126104
317,karpogory,64.0,44.45,46.0,66.0,87.0,6.69,RU,1589126104
318,eureka,40.8,-124.16,55.99,81.0,100.0,1.01,US,1589125922
319,okha,53.57,142.95,37.4,80.0,0.0,8.95,RU,1589126104
320,ilulissat,69.22,-51.1,30.2,80.0,74.0,11.41,GL,1589126104
321,kemijarvi,66.71,27.43,37.35,96.0,100.0,6.98,FI,1589126105
322,saint-denis,48.92,2.33,73.0,64.0,75.0,8.14,FR,1589126105
323,moranbah,-22.0,148.05,65.07,60.0,15.0,17.6,AU,1589126105
324,broken hill,-31.95,141.43,46.4,65.0,0.0,8.05,AU,1589125842
325,lamu,-2.27,40.9,79.41,85.0,99.0,18.54,KE,1589126105
326,linjiang,41.81,126.91,48.38,63.0,18.0,8.3,CN,1589126106
327,shimoda,34.67,138.95,69.8,94.0,75.0,13.87,JP,1589126106
328,bonavista,48.65,-53.11,36.64,79.0,3.0,32.08,CA,1589126106
329,faanui,-16.48,-151.75,80.8,82.0,31.0,12.15,PF,1589126106
330,piacabucu,-10.41,-36.43,80.37,81.0,42.0,11.21,BR,1589126106
331,anadyr,64.75,177.48,32.0,90.0,75.0,49.21,RU,1589126106
332,vanavara,60.34,102.28,40.35,67.0,0.0,6.26,RU,1589126107
333,vostok,46.49,135.88,41.16,99.0,97.0,4.32,RU,1589126107
334,vardo,70.37,31.11,37.4,55.0,65.0,8.05,NO,1589126107
335,vanimo,-2.67,141.3,80.13,86.0,97.0,4.29,PG,1589126107
336,soure,-0.72,-48.52,83.48,75.0,51.0,7.18,BR,1589126108
337,puerto escondido,15.85,-97.07,87.8,66.0,20.0,5.84,MX,1589126108
338,mujiayingzi,42.12,118.78,48.81,42.0,16.0,9.86,CN,1589126108
339,araouane,18.9,-3.53,108.7,6.0,27.0,3.91,ML,1589126108
340,togur,58.36,82.83,67.15,39.0,41.0,5.64,RU,1589126108
341,margate,51.38,1.39,52.0,83.0,100.0,34.09,GB,1589125956
342,rimavska sobota,48.38,20.02,69.98,60.0,100.0,6.69,SK,1589126109
343,poum,-20.23,164.02,74.55,73.0,5.0,7.85,NC,1589126109
344,stornoway,58.21,-6.39,44.6,52.0,57.0,20.8,GB,1589126109
345,sao geraldo do araguaia,-6.4,-48.55,84.9,70.0,87.0,7.27,BR,1589126109
346,jambi,-1.6,103.62,76.71,93.0,48.0,2.57,ID,1589126109
347,chase,50.82,-119.69,57.2,41.0,20.0,3.36,CA,1589126109
348,imbituba,-28.24,-48.67,77.0,47.0,0.0,12.75,BR,1589126110
349,tres arroyos,-38.37,-60.28,69.53,32.0,16.0,14.94,AR,1589126110
350,hofn,64.25,-15.21,42.8,35.0,77.0,5.82,IS,1589126110
351,kudat,6.88,116.85,84.2,83.0,75.0,4.7,MY,1589126110
352,kaduy,59.2,37.15,52.34,55.0,13.0,6.2,RU,1589126111
353,vila,42.03,-8.16,62.01,75.0,45.0,11.01,PT,1589126111
354,jingdezhen,29.29,117.21,66.02,89.0,7.0,3.15,CN,1589126111
355,kruisfontein,-34.0,24.73,66.54,36.0,0.0,0.83,ZA,1589126111
356,sinnamary,5.38,-52.95,79.77,90.0,50.0,13.47,GF,1589126111
357,iki-burul,45.82,44.65,60.01,54.0,67.0,17.9,RU,1589126111
358,churapcha,62.0,132.43,30.78,96.0,97.0,5.01,RU,1589126112
359,sertania,-8.07,-37.26,82.15,58.0,99.0,7.45,BR,1589126112
360,coquimbo,-29.95,-71.34,53.6,87.0,90.0,6.93,CL,1589126112
361,oskarshamn,57.26,16.45,55.4,82.0,95.0,18.34,SE,1589126112
362,port hedland,-20.32,118.57,78.8,21.0,100.0,9.17,AU,1589126112
363,mbanza-ngungu,-5.25,14.87,74.32,94.0,100.0,4.07,CD,1589126113
364,mount gambier,-37.83,140.77,46.4,93.0,0.0,6.93,AU,1589126113
365,qaqortoq,60.72,-46.03,59.0,28.0,75.0,13.87,GL,1589126113
366,husavik,66.04,-17.34,46.4,31.0,99.0,16.11,IS,1589126113
367,birao,10.28,22.79,100.65,17.0,13.0,4.45,CF,1589126113
368,scottsbluff,41.87,-103.67,52.0,45.0,20.0,9.48,US,1589126114
369,pervoye maya,56.16,44.72,60.01,58.0,75.0,6.71,RU,1589126114
370,dingle,11.0,122.67,80.56,75.0,99.0,4.23,PH,1589126114
371,khandbari,27.37,87.2,71.06,48.0,35.0,3.98,NP,1589126114
372,finschhafen,-6.6,147.87,80.44,79.0,84.0,7.18,PG,1589126114
373,kununurra,-15.77,128.73,77.0,36.0,14.0,8.05,AU,1589126114
374,jacareacanga,-6.22,-57.75,89.56,60.0,93.0,3.15,BR,1589126115
375,nalagarh,31.05,76.72,81.9,35.0,54.0,4.16,IN,1589126115
376,pangnirtung,66.15,-65.71,27.46,91.0,100.0,9.91,CA,1589126115
377,nampa,43.54,-116.56,64.99,33.0,1.0,12.75,US,1589125860
378,bluefields,12.01,-83.76,84.81,79.0,83.0,5.95,NI,1589126116
379,draguignan,43.53,6.47,62.6,93.0,100.0,5.82,FR,1589126116
380,novikovo,51.15,37.89,50.22,86.0,100.0,11.81,RU,1589126116
381,barcelos,41.54,-8.62,66.99,67.0,20.0,9.17,PT,1589126116
382,pacific grove,36.62,-121.92,55.4,76.0,90.0,4.7,US,1589126116
383,mitu,1.2,-70.17,80.8,90.0,80.0,2.95,CO,1589126116
384,pingxiang,27.62,113.85,68.56,88.0,13.0,0.76,CN,1589126117
385,santa cruz,-17.8,-63.17,80.6,57.0,50.0,21.92,BO,1589125983
386,lusambo,-4.97,23.45,83.12,57.0,35.0,3.02,CD,1589126117
387,mehamn,71.04,27.85,33.8,64.0,23.0,8.05,NO,1589126117
388,ballinrobe,53.63,-9.23,54.0,64.0,99.0,1.99,IE,1589126118
389,ahipara,-35.17,173.17,56.98,85.0,98.0,6.64,NZ,1589126118
390,upernavik,72.79,-56.15,16.88,90.0,62.0,12.19,GL,1589126118
391,mayumba,-3.43,10.66,77.86,88.0,100.0,7.23,GA,1589126118
392,keetmanshoop,-26.58,18.13,84.2,17.0,0.0,9.17,NA,1589126119
393,gat,31.61,34.76,73.0,61.0,0.0,1.01,IL,1589126119
394,portland,45.52,-122.68,66.99,67.0,100.0,1.97,US,1589125931
395,chico,39.73,-121.84,63.0,59.0,75.0,5.82,US,1589125971
396,gejiu,23.31,103.16,61.9,84.0,29.0,3.51,CN,1589126119
397,hualmay,-11.1,-77.61,70.97,72.0,58.0,8.34,PE,1589126120
398,salme,28.04,85.09,62.6,82.0,20.0,2.24,NP,1589126120
399,umm lajj,25.02,37.27,78.26,61.0,24.0,11.92,SA,1589126120
400,pila,53.15,16.74,65.93,78.0,94.0,7.0,PL,1589126120
401,la libertad,-2.23,-80.9,80.6,78.0,82.0,4.7,EC,1589126120
402,camocim,-2.9,-40.84,80.76,86.0,70.0,6.42,BR,1589126121
403,cap-aux-meules,47.38,-61.86,39.2,92.0,90.0,33.33,CA,1589126042
404,swinoujscie,53.91,14.25,75.99,47.0,90.0,5.46,PL,1589126121
405,zwedru,6.07,-8.13,86.77,70.0,69.0,5.01,LR,1589126121
406,la paz,-16.5,-68.15,59.0,44.0,20.0,8.05,BO,1589126122
407,waterloo,43.47,-80.52,48.0,52.0,75.0,2.24,CA,1589126085
408,mafinga,-7.25,35.07,74.46,57.0,43.0,7.38,TZ,1589126122
409,griffith,41.53,-87.42,46.99,87.0,90.0,11.52,US,1589126122
410,kondinskoye,59.65,67.41,67.35,44.0,99.0,8.3,RU,1589126123
411,campos belos,-13.04,-46.77,80.37,59.0,19.0,7.23,BR,1589126123
412,la asuncion,11.03,-63.86,84.2,70.0,36.0,21.92,VE,1589126124
413,tukrah,32.53,20.58,75.7,34.0,9.0,11.14,LY,1589126124
414,robinson,31.47,-97.11,69.01,59.0,5.0,4.7,US,1589126124
415,the valley,18.22,-63.06,87.8,58.0,20.0,17.22,AI,1589126124
416,prestea,5.43,-2.14,82.31,85.0,100.0,5.23,GH,1589126124
417,inongo,-1.95,18.27,71.56,96.0,100.0,4.61,CD,1589126125
418,iqaluit,63.75,-68.51,26.6,73.0,90.0,27.51,CA,1589126055
419,petropavlovsk-kamchatskiy,53.05,158.65,33.8,64.0,1.0,11.18,RU,1589126125
420,acari,-15.43,-74.62,75.7,55.0,92.0,7.99,PE,1589126125
421,rocha,-34.48,-54.33,69.55,60.0,36.0,13.67,UY,1589126126
422,nileshwar,12.25,75.1,84.78,80.0,76.0,6.62,IN,1589126126
423,san rafael del sur,11.85,-86.44,89.51,54.0,100.0,5.35,NI,1589126126
424,alzamay,55.56,98.66,57.7,74.0,85.0,3.42,RU,1589126126
425,la roche-sur-yon,46.67,-1.43,68.0,82.0,83.0,11.41,FR,1589126126
426,maragogi,-9.01,-35.22,82.72,72.0,37.0,9.62,BR,1589125938
427,esperance,-33.87,121.9,53.6,50.0,48.0,12.75,AU,1589126127
428,palu,-0.89,119.87,77.61,81.0,95.0,3.38,ID,1589126127
429,santa maria,-29.68,-53.81,77.52,46.0,62.0,11.3,BR,1589126127
430,plouzane,48.38,-4.62,66.2,59.0,20.0,18.34,FR,1589126128
431,acapulco,16.86,-99.89,86.0,55.0,5.0,3.36,MX,1589126128
432,comodoro rivadavia,-45.87,-67.5,51.8,57.0,75.0,23.04,AR,1589125877
433,kars,40.6,43.09,46.4,78.0,75.0,9.17,TR,1589126128
434,mizdah,31.45,12.98,100.74,8.0,100.0,23.02,LY,1589126128
435,alice springs,-23.7,133.88,57.2,33.0,100.0,12.75,AU,1589126129
436,brownwood,31.71,-98.99,69.8,46.0,1.0,4.7,US,1589125883
437,chiang rai,19.91,99.83,73.4,94.0,75.0,3.36,TH,1589126129
438,basoko,1.24,23.62,79.88,82.0,99.0,2.71,CD,1589126129
439,suntar,62.14,117.63,35.78,79.0,61.0,3.74,RU,1589126129
440,islahiye,37.02,36.63,75.2,29.0,0.0,14.99,TR,1589126130
441,norman wells,65.28,-126.83,42.8,60.0,5.0,12.75,CA,1589126130
442,nushki,29.55,66.02,86.77,13.0,75.0,2.82,PK,1589126130
443,beloha,-25.17,45.05,66.45,75.0,0.0,13.98,MG,1589126130
444,teya,60.38,92.63,51.55,46.0,43.0,2.48,RU,1589126130
445,balkhash,46.84,74.98,64.09,62.0,81.0,5.86,KZ,1589126131
446,quatre cocos,-20.21,57.76,73.4,73.0,40.0,12.75,MU,1589126131
447,turka,49.15,23.03,66.99,44.0,46.0,1.99,UA,1589126131
448,robertsport,6.75,-11.37,82.96,77.0,86.0,13.29,LR,1589126131
449,paysandu,-32.32,-58.08,74.07,51.0,20.0,15.77,UY,1589126131
450,makaryev,57.88,43.81,52.99,97.0,99.0,6.15,RU,1589126132
451,altay,47.87,88.12,57.24,32.0,0.0,4.36,CN,1589126132
452,kavieng,-2.57,150.8,83.71,79.0,96.0,9.93,PG,1589126132
453,alappuzha,9.49,76.33,84.72,83.0,100.0,9.55,IN,1589126132
454,charters towers,-20.1,146.27,65.66,79.0,30.0,5.17,AU,1589126132
455,kutum,14.2,24.67,90.23,11.0,17.0,6.35,SD,1589126132
456,pemba,-12.97,40.52,79.48,78.0,21.0,17.49,MZ,1589126133
457,roald,62.58,6.13,41.0,52.0,40.0,8.05,NO,1589126133
458,berberati,4.26,15.79,84.42,63.0,17.0,2.28,CF,1589126133
459,borne,52.3,6.75,62.01,71.0,100.0,11.99,NL,1589126133
460,goderich,43.75,-81.72,44.01,87.0,100.0,9.26,CA,1589125857
461,haines junction,60.75,-137.51,52.3,54.0,0.0,2.82,CA,1589126134
462,impfondo,1.64,18.07,80.35,83.0,96.0,3.42,CG,1589126134
463,mozarlandia,-14.74,-50.57,84.6,57.0,0.0,7.25,BR,1589126134
464,kupang,-10.17,123.58,77.88,76.0,0.0,9.91,ID,1589126000
465,morondava,-20.28,44.28,79.68,69.0,4.0,5.55,MG,1589126134
466,skibbereen,51.55,-9.27,53.6,76.0,75.0,19.46,IE,1589126135
467,houma,29.6,-90.72,73.99,56.0,1.0,9.17,US,1589125894
468,geraldton,-28.77,114.6,60.8,77.0,40.0,6.93,AU,1589126091
469,itanagar,27.1,93.62,74.93,59.0,0.0,4.12,IN,1589126135
470,san joaquin,10.26,-67.79,85.21,52.0,95.0,3.69,VE,1589126135
471,pitimbu,-7.47,-34.81,86.0,66.0,40.0,10.29,BR,1589126136
472,namatanai,-3.67,152.43,80.74,78.0,100.0,6.42,PG,1589126136
473,havre-saint-pierre,50.23,-63.6,46.4,49.0,75.0,28.86,CA,1589126136
474,bushehr,28.97,50.84,84.2,54.0,48.0,11.41,IR,1589126136
475,abalak,58.13,68.59,67.12,47.0,100.0,7.23,RU,1589126136
476,liverpool,53.41,-2.98,48.99,57.0,100.0,21.92,GB,1589126137
477,haljala,59.43,26.26,56.75,54.0,63.0,8.28,EE,1589126137
478,kawalu,-7.38,108.21,74.41,91.0,100.0,0.78,ID,1589126137
479,kaspiyskiy,45.39,47.37,56.97,65.0,100.0,11.45,RU,1589126137
480,ahuimanu,21.44,-157.84,82.4,51.0,75.0,11.41,US,1589126091
481,lata,40.16,-8.33,68.0,64.0,35.0,5.99,PT,1589126138
482,ewa beach,21.32,-158.01,71.6,73.0,20.0,5.82,US,1589126138
483,alice town,25.72,-79.3,72.43,82.0,100.0,19.01,BS,1589126138
484,kandrian,-6.22,149.55,79.72,88.0,99.0,9.22,PG,1589126138
485,beruwala,6.48,79.98,79.5,89.0,100.0,9.48,LK,1589126139
486,komatipoort,-25.43,31.95,71.6,56.0,0.0,5.12,ZA,1589126139
487,urucara,-2.54,-57.76,82.67,89.0,60.0,4.23,BR,1589126139
488,isangel,-19.55,169.27,64.4,93.0,20.0,7.29,VU,1589126139
489,shahrud,36.42,54.98,75.04,26.0,15.0,12.06,IR,1589126139
490,along,28.17,94.77,69.55,74.0,66.0,2.62,IN,1589126140
491,beringovskiy,63.05,179.32,33.08,95.0,79.0,18.45,RU,1589126140
492,koson,39.04,65.58,78.8,41.0,100.0,6.93,UZ,1589126140
493,torbat-e jam,35.24,60.62,78.75,22.0,75.0,7.05,IR,1589126140
494,port blair,11.67,92.75,85.35,75.0,99.0,3.44,IN,1589125932
495,biankouma,7.74,-7.61,89.1,51.0,25.0,1.54,CI,1589126141
496,matoury,4.85,-52.33,86.0,70.0,68.0,8.05,GF,1589126141
497,deputatskiy,69.3,139.9,19.89,96.0,52.0,4.03,RU,1589126142
498,bar harbor,44.39,-68.2,46.0,36.0,75.0,18.34,US,1589126142
499,bangkalan,-7.05,112.74,80.31,84.0,100.0,6.46,ID,1589126142
500,kudahuvadhoo,2.67,72.89,85.51,78.0,100.0,14.03,MV,1589126142
501,nilopolis,-22.81,-43.41,80.6,47.0,20.0,5.82,BR,1589126143
502,wajid,3.81,43.25,81.07,72.0,84.0,10.67,SO,1589126143
503,coihaique,-45.58,-72.07,48.2,76.0,75.0,7.96,CL,1589126143
504,kenora,49.82,-94.43,33.8,47.0,75.0,13.87,CA,1589126143
505,nanakuli,21.39,-158.15,71.6,93.0,1.0,6.93,US,1589126144
506,snezhnogorsk,69.19,33.25,39.2,48.0,95.0,11.18,RU,1589126144
507,erenhot,43.65,111.98,49.93,40.0,0.0,17.43,CN,1589126144
508,paracale,14.28,122.79,80.49,83.0,99.0,6.73,PH,1589126144
509,lesozavodsk,45.48,133.42,47.57,94.0,69.0,6.26,RU,1589126144
510,miraflores,19.22,-98.81,62.6,67.0,20.0,3.74,MX,1589126145
511,yulara,-25.24,130.99,59.0,47.0,98.0,11.41,AU,1589126145
512,douglas,41.3,-96.17,50.0,37.0,1.0,18.34,US,1589126145
513,half moon bay,37.46,-122.43,60.01,76.0,90.0,8.05,US,1589126145
514,sarh,9.14,18.39,91.4,41.0,20.0,9.17,TD,1589126145
515,khandyga,62.67,135.6,31.14,98.0,99.0,0.58,RU,1589126146
516,chiredzi,-21.05,31.67,66.11,55.0,4.0,2.86,ZW,1589126146
517,udachnyy,66.42,112.4,24.8,85.0,90.0,13.42,RU,1589126146
518,turukhansk,65.82,87.98,39.51,74.0,100.0,17.36,RU,1589126146
519,touros,-5.2,-35.46,86.0,66.0,40.0,13.87,BR,1589126147
520,makinsk,52.63,70.42,64.02,39.0,0.0,6.96,KZ,1589126147
521,dwarka,22.24,68.97,82.58,87.0,0.0,12.71,IN,1589126147
522,yarim,14.3,44.38,64.92,39.0,8.0,6.4,YE,1589126104
523,zhigansk,66.77,123.37,20.86,96.0,0.0,11.72,RU,1589126147
524,carlyle,38.61,-89.37,54.0,58.0,18.0,10.0,US,1589126147
525,codrington,-38.27,141.97,46.54,92.0,2.0,9.35,AU,1589126148
526,kaabong,3.48,34.15,68.92,77.0,72.0,7.18,UG,1589126148
527,anloga,5.79,0.9,78.8,88.0,40.0,5.82,GH,1589126148
528,bengkulu,-3.8,102.27,77.22,90.0,100.0,3.76,ID,1589126148
529,selma,36.57,-119.61,71.6,40.0,1.0,1.23,US,1589126148
530,nesbyen,60.57,9.1,32.0,53.0,100.0,1.99,NO,1589126149
531,broome,42.25,-75.83,51.01,42.0,90.0,18.34,US,1589125969
532,guerrero negro,27.98,-114.06,67.68,69.0,35.0,9.42,MX,1589126149
533,slupsk,54.46,17.03,69.69,59.0,55.0,5.48,PL,1589126149
534,huescar,37.81,-2.54,62.01,49.0,65.0,7.0,ES,1589126149
535,goksun,38.02,36.5,75.2,29.0,0.0,14.99,TR,1589126149
536,helong,42.54,129.0,48.6,62.0,1.0,11.86,CN,1589126150
537,kieta,-6.22,155.63,79.9,79.0,95.0,3.49,PG,1589126150
538,sri aman,1.24,111.46,80.6,100.0,1.0,1.52,MY,1589126150
539,koutsouras,35.03,25.95,72.0,51.0,0.0,1.01,GR,1589126150
540,talas,38.69,35.55,60.8,36.0,20.0,6.93,TR,1589126150
541,mathbaria,22.29,89.96,83.95,74.0,0.0,5.82,BD,1589126151
542,kashi,39.45,75.98,51.8,81.0,75.0,13.42,CN,1589126151
543,nuuk,64.18,-51.72,44.6,75.0,100.0,5.82,GL,1589126151
544,bereda,43.27,-7.54,63.0,66.0,90.0,5.99,ES,1589126151
545,chapais,49.78,-74.85,30.2,86.0,90.0,13.87,CA,1589126151
546,rafai,4.95,23.92,82.72,58.0,33.0,3.6,CF,1589126152
547,were ilu,10.6,39.43,57.6,67.0,3.0,9.13,ET,1589126152
548,pyapon,16.28,95.68,87.08,58.0,0.0,9.35,MM,1589126152
549,asau,46.43,26.4,75.2,41.0,22.0,3.36,RO,1589126152
550,kishi,9.08,3.85,79.79,78.0,80.0,8.93,NG,1589126152
551,gamba,-2.65,10.0,75.25,95.0,100.0,5.82,GA,1589126153
552,saint anthony,45.02,-93.22,43.0,61.0,75.0,12.75,US,1589126103
553,portoferraio,42.81,10.31,62.6,88.0,40.0,13.87,IT,1589126153
554,fairbanks,64.84,-147.72,55.0,61.0,1.0,2.24,US,1589126044
555,bagacay,12.98,124.14,83.21,80.0,99.0,10.76,PH,1589126155
556,mount isa,-20.73,139.5,64.4,22.0,7.0,13.87,AU,1589126155
557,buri,-23.8,-48.59,74.82,48.0,0.0,6.35,BR,1589126156
558,honiara,-9.43,159.95,78.8,94.0,75.0,3.36,SB,1589126156
559,makat,47.65,53.35,57.25,71.0,100.0,9.91,KZ,1589126156
560,pierre,44.37,-100.35,43.0,60.0,1.0,12.75,US,1589126110
561,talcahuano,-36.72,-73.12,60.8,67.0,16.0,8.05,CL,1589126156
562,bloomingdale,27.89,-82.24,75.99,94.0,90.0,10.29,US,1589125995
563,los llanos de aridane,28.66,-17.92,75.2,64.0,20.0,19.46,ES,1589126157
564,jhol,25.96,68.89,98.6,47.0,0.0,11.41,PK,1589126157
565,miyang,24.4,103.44,68.68,54.0,0.0,2.59,CN,1589126157
566,brookhaven,31.58,-90.44,69.01,70.0,20.0,5.57,US,1589125883
